{"pageProps":{"villages":[{"province":"Aklan","municipality":"Banga","lon":"122.353472","association":"BANGA AMIA VILLAGE FARMER ASSOCIATION","lat":"11.639994","barangay":"Muguing"},{"province":"Aklan","municipality":"Banga","lon":"122.344193","lat":"11.643202","barangay":"Mambog","association":"BANGA AMIA VILLAGE FARMER ASSOCIATION"},{"province":"Aklan","barangay":"Linabuan Sur","lat":"11.657256","lon":"122.345245","municipality":"Banga","association":"BANGA AMIA VILLAGE FARMER ASSOCIATION"},{"lat":"11.586788","province":"Aklan","municipality":"Banga","lon":"122.350678","association":"BANGA AMIA VILLAGE FARMER ASSOCIATION","barangay":"San Isidro"},{"barangay":"Palay","lat":"11.554845","lon":"122.518274","municipality":"Batan","association":"BATAN AMIA VILLAGE FARMER ASSOCIATION","province":"Aklan"},{"lon":"122.506069","association":"BATAN AMIA VILLAGE FARMER ASSOCIATION","lat":"11.574515","municipality":"Batan","province":"Aklan","barangay":"Ambolong"},{"association":"NUMANCIA AMIA VILLAGE FARMER ASSOCIATION","lat":"11.717283","province":"Aklan","municipality":"Numancia","barangay":"Bubog","lon":"122.343327"},{"barangay":"Aliputos","association":"NUMANCIA AMIA VILLAGE FARMER ASSOCIATION","lon":"122.342576","municipality":"Numancia","lat":"11.697203","province":"Aklan"},{"lon":"122.338801","association":"NUMANCIA AMIA VILLAGE FARMER ASSOCIATION","barangay":"Laguinbanwa West ","lat":"11.707427","province":"Aklan","municipality":"Numancia"},{"association":"UGWAD VALDERRAMA AMIA VILLAGE FARMER ASSOCIATION","lon":"122.13762","lat":"11.000784","province":"Antique","barangay":"Takas","municipality":"Valderrama"},{"barangay":"Ubos ","lon":"122.133587","lat":"11.01075","association":"UGWAD VALDERRAMA AMIA VILLAGE FARMER ASSOCIATION","province":"Antique","municipality":"Valderrama"},{"lon":"122.119677","province":"Antique","municipality":"Valderrama","lat":"11.011314","association":"UGWAD VALDERRAMA AMIA VILLAGE FARMER ASSOCIATION","barangay":"Buluangan 1"},{"association":"UNITED SIBALOM AMIA VILLAGE FARMER ASSOCIATION","municipality":"Sibalom","province":"Antique","lon":"122.089734","barangay":"Bontol ","lat":"10.759165"},{"lat":"10.772198","municipality":"Sibalom","lon":"122.062941","province":"Antique","association":"UNITED SIBALOM AMIA VILLAGE FARMER ASSOCIATION","barangay":"Pis-anan"},{"lon":"121.955071","barangay":"Salvacion","lat":"10.417238","province":"Antique","association":"MASAGANA ANINI-Y AMIA VILLAGE FARMER ASSOCIATION","municipality":"Anini-y"},{"municipality":"Anini-y","lon":"121.976759","province":"Antique","barangay":"Magdalena ","association":"MASAGANA ANINI-Y AMIA VILLAGE FARMER ASSOCIATION","lat":"10.425415"},{"lat":"10.426631","association":"MASAGANA ANINI-Y AMIA VILLAGE FARMER ASSOCIATION","province":"Antique","barangay":"Nato-Butuan","municipality":"Anini-y","lon":"121.935344"},{"province":"Antique","association":"MASAGANA ANINI-Y AMIA VILLAGE FARMER ASSOCIATION","lat":"10.416472","barangay":"San Roque","municipality":"Anini-y","lon":"121.964829"},{"barangay":"San Pedro","lat":"11.43157","municipality":"Pontevedra","association":"BINUJOSAN FARMER ASSOCIATION","province":"Capiz","lon":"122.858152"},{"lon":"122.866161","lat":"11.411915","association":"BINUJOSAN FARMER ASSOCIATION","province":"Capiz","barangay":"Binuntucan","municipality":"Pontevedra"},{"lon":"122.846382","association":"BINUJOSAN FARMER ASSOCIATION","lat":"11.422279","municipality":"Pontevedra","province":"Capiz","barangay":"Jolongajog"},{"province":"Capiz","association":"BINUJOSAN FARMER ASSOCIATION","barangay":"Guba","lon":"122.818061","municipality":"Pontevedra","lat":"11.486581"},{"barangay":"Mainit","province":"Capiz","association":"BRGY. MAINIT FARMER ASSOCIATION","municipality":"Cuartero","lat":"11.304913","lon":"122.753941"},{"barangay":"Cala-an","province":"Capiz","municipality":"Panitan","lat":"11.423174","association":"CALA-AN AMIA VILLAGE FARMER ASSOCIATION","lon":"122.748"},{"barangay":"Duyoc","municipality":"Dao","association":"DUYOC-LACARON AMIA VILLAGE FARMER ASSOCIATION","lon":"122.707358","province":"Capiz","lat":"11.409987"},{"lon":"122.735668","association":"DUYOC-LACARON AMIA VILLAGE FARMER ASSOCIATION","barangay":"Lacaron","municipality":"Dao","lat":"11.411674","province":"Capiz"},{"municipality":"Sibunag","lat":"10.501567","province":"Guimaras","lon":"122.656302","barangay":"Bubog","association":"BUSESA FARMER ASSOCIATION"},{"municipality":"Sibunag","province":"Guimaras","barangay":"Sebaste","lon":"122.664585","association":"BUSESA FARMER ASSOCIATION","lat":"10.513509"},{"lon":"122.645057","lat":"10.491522","association":"BUSESA FARMER ASSOCIATION","barangay":"Sabang","province":"Guimaras","municipality":"Sibunag"},{"lat":"10.61206","lon":"122.697801","municipality":"San Lorenzo","province":"Guimaras","barangay":"M. Chavez","association":"SAN LORENZO AMIA VILLAGE FARMER ASSOCIATION"},{"province":"Guimaras","association":"SAN LORENZO AMIA VILLAGE FARMER ASSOCIATION","lat":"10.546967","lon":"122.679047","municipality":"San Lorenzo","barangay":"Igcawayan"},{"municipality":"San Lorenzo","lon":"122.681535","barangay":"Cabano","province":"Guimaras","lat":"10.57966","association":"SAN LORENZO AMIA VILLAGE FARMER ASSOCIATION"},{"lat":"11.031216","lon":"122.798606","municipality":"Banate","association":"ABANTE BANATE AMIA VILLAGE FARMER ASSOCIATION","province":"Iloilo","barangay":"Libertad"},{"barangay":"Merced","lon":"122.821601","province":"Iloilo","lat":"11.027144","municipality":"Banate","association":"ABANTE BANATE AMIA VILLAGE FARMER ASSOCIATION"},{"lon":"122.815311","lat":"11.012964","association":"ABANTE BANATE AMIA VILLAGE FARMER ASSOCIATION","province":"Iloilo","municipality":"Banate","barangay":"Carmelo"},{"association":"ESTANACIA AMIA VILLAGE FARMER ASSOCIATION","lon":"123.119981","barangay":"Tabuan","province":"Iloilo","municipality":"Estancia","lat":"11.458866"},{"barangay":"Cano-an","lon":"123.130665","association":"ESTANACIA AMIA VILLAGE FARMER ASSOCIATION","lat":"11.45861","municipality":"Estancia","province":"Iloilo"},{"province":"Iloilo","association":"ESTANACIA AMIA VILLAGE FARMER ASSOCIATION","lon":"123.121443","municipality":"Estancia","lat":"11.449245","barangay":"Lonoy"},{"association":"SANYOG SAN RAFAEL AMIA VILLAGE FARMER ASSOCIATION","lon":"122.829505","barangay":"Poblacion","province":"Iloilo","municipality":"San Rafael","lat":"11.182452"},{"association":"SANYOG SAN RAFAEL AMIA VILLAGE FARMER ASSOCIATION","province":"Iloilo","lon":"122.795276","lat":"11.169274","barangay":"San Andres","municipality":"San Rafael"},{"municipality":"San Rafael","lon":"122.83173","province":"Iloilo","barangay":"Ilongbukid","association":"SANYOG SAN RAFAEL AMIA VILLAGE FARMER ASSOCIATION","lat":"11.14453"},{"association":"HATAW BINGAWAN AMIA VILLAGE FARMER ASSOCIATION","lat":"11.246033","municipality":"Bingawan","barangay":"Quinangyana","lon":"122.597887","province":"Iloilo"},{"association":"HATAW BINGAWAN AMIA VILLAGE FARMER ASSOCIATION","lon":"122.572297","municipality":"Bingawan","barangay":"Quinar-upan","province":"Iloilo","lat":"11.191564"},{"association":"HATAW BINGAWAN AMIA VILLAGE FARMER ASSOCIATION","municipality":"Bingawan","lon":"122.57012","lat":"11.226967","barangay":"Poblacion","province":"Iloilo"},{"province":"Iloilo","association":"HATAW BINGAWAN AMIA VILLAGE FARMER ASSOCIATION","barangay":"Alabidhan","municipality":"Bingawan","lon":"122.585925","lat":"11.21598"},{"municipality":"Pontevedra","association":"AMIA VILLAGE ORGANIC FARMER ASSOCIATION","province":"Negros Occidental","lon":"122.899711","lat":"10.330534","barangay":"San Isidro"},{"lon":"122.878043","barangay":"M.H del Pilar","association":"AMIA VILLAGE ORGANIC FARMER ASSOCIATION","lat":"10.332178","province":"Negros Occidental","municipality":"Pontevedra"},{"lon":"123.415158","barangay":"Rizal","lat":"10.89713","municipality":"Sagay City","province":"Negros Occidental","association":"MENAKALAW FARMER ASSOCIATION"},{"municipality":"Cauayan","lat":"9.970433","province":"Negros Occidental","association":"CAUAYAN AMIA VILLAGE FARMER ASSOCIATIONRMERS AND FISHERFOLKS PRODUCERS COOPERATIVE","barangay":"Masaling ","lon":"122.522247"},{"municipality":"Valladolid","province":"Negros Occidental","lon":"122.832193","barangay":"Paloma","lat":"10.466739","association":"BRGY. PALOMA FARMER ASSOCIATION"},{"municipality":"Toboso","barangay":"Tabun-ac","lat":"10.710235","province":"Negros Occidental","association":"MATUGA FARMER ASSOCIATION","lon":"123.479184"}],"provincesMunicipalities":[{"label":"Aklan","id":0,"disabled":false,"municipalities":[{"label":"Altavas","id":0,"disabled":false},{"label":"Balete","id":1,"disabled":false},{"id":2,"label":"Banga","disabled":false},{"id":3,"disabled":false,"label":"Batan"},{"label":"Buruanga","disabled":false,"id":4},{"disabled":false,"id":5,"label":"Ibajay"},{"label":"Kalibo","disabled":false,"id":6},{"disabled":false,"label":"Lezo","id":7},{"disabled":false,"label":"Libacao","id":8},{"label":"Madalag","id":9,"disabled":false},{"disabled":false,"label":"Makato","id":10},{"disabled":false,"id":11,"label":"Malay"},{"label":"Malinao","disabled":false,"id":12},{"disabled":false,"label":"Nabas","id":13},{"disabled":false,"label":"New Washington","id":14},{"disabled":false,"label":"Numancia","id":15},{"id":16,"label":"Tangalan","disabled":false}]},{"disabled":false,"id":1,"label":"Antique","municipalities":[{"disabled":false,"label":"Anini-Y","id":0},{"disabled":false,"id":1,"label":"Barbaza"},{"disabled":false,"id":2,"label":"Belison"},{"id":3,"label":"Bugasong","disabled":false},{"id":4,"label":"Caluya","disabled":false},{"id":5,"disabled":false,"label":"Culasi"},{"disabled":false,"label":"Hamtic","id":6},{"id":7,"disabled":false,"label":"Laua-An"},{"disabled":false,"id":8,"label":"Libertad"},{"id":9,"disabled":false,"label":"Pandan"},{"disabled":false,"label":"Patnongon","id":10},{"id":11,"label":"San Jose","disabled":false},{"label":"San Remigio","id":12,"disabled":false},{"disabled":false,"id":13,"label":"Sebaste"},{"id":14,"label":"Sibalom","disabled":false},{"disabled":false,"id":15,"label":"Tibiao"},{"disabled":false,"id":16,"label":"Tobias Fornier"},{"id":17,"disabled":false,"label":"Valderrama"}]},{"disabled":false,"id":2,"label":"Capiz","municipalities":[{"id":0,"label":"Cuartero","disabled":false},{"label":"Dao","id":1,"disabled":false},{"label":"Dumalag","id":2,"disabled":false},{"label":"Dumarao","disabled":false,"id":3},{"label":"Ivisan","id":4,"disabled":false},{"disabled":false,"label":"Jamindan","id":5},{"id":6,"disabled":false,"label":"Ma-Ayon"},{"disabled":false,"id":7,"label":"Mambusao"},{"disabled":false,"id":8,"label":"Panay"},{"label":"Panitan","id":9,"disabled":false},{"disabled":false,"id":10,"label":"Pilar"},{"disabled":false,"label":"Pontevedra","id":11},{"label":"President Roxas","disabled":false,"id":12},{"id":13,"label":"Roxas City","disabled":false},{"disabled":false,"label":"Sapi-An","id":14},{"id":15,"disabled":false,"label":"Sigma"},{"disabled":false,"label":"Tapaz","id":16}]},{"municipalities":[{"label":"Buenavista","disabled":false,"id":0},{"disabled":false,"label":"Jordan","id":1},{"id":2,"label":"Nueva Valencia","disabled":false},{"id":3,"label":"San Lorenzo","disabled":false},{"label":"Sibunag","id":4,"disabled":false}],"disabled":false,"id":3,"label":"Guimaras"},{"disabled":false,"municipalities":[{"id":0,"label":"Ajuy","disabled":false},{"disabled":false,"label":"Alimodian","id":1},{"label":"Anilao","id":2,"disabled":false},{"disabled":false,"label":"Badiangan","id":3},{"disabled":false,"label":"Balasan","id":4},{"disabled":false,"id":5,"label":"Banate"},{"disabled":false,"label":"Barotac Nuevo","id":6},{"id":7,"label":"Barotac Viejo","disabled":false},{"label":"Batad","id":8,"disabled":false},{"disabled":false,"label":"Bingawan","id":9},{"disabled":false,"label":"Cabatuan","id":10},{"disabled":false,"id":11,"label":"Calinog"},{"label":"Carles","id":12,"disabled":false},{"label":"Concepcion","id":13,"disabled":false},{"label":"Dingle","id":14,"disabled":false},{"label":"Duenas","disabled":true,"id":15},{"label":"Dumangas","id":16,"disabled":false},{"id":17,"disabled":false,"label":"Estancia"},{"id":18,"label":"Guimbal","disabled":false},{"disabled":false,"label":"Igbaras","id":19},{"disabled":false,"id":20,"label":"Iloilo City"},{"id":21,"label":"Janiuay","disabled":false},{"label":"Lambunao","id":22,"disabled":false},{"disabled":false,"label":"Leganes","id":23},{"id":24,"disabled":false,"label":"Lemery"},{"disabled":false,"id":25,"label":"Leon"},{"id":26,"disabled":false,"label":"Maasin"},{"disabled":false,"label":"Miagao","id":27},{"disabled":false,"id":28,"label":"Mina"},{"disabled":false,"id":29,"label":"New Lucena"},{"id":30,"label":"Oton","disabled":false},{"label":"Passi City","id":31,"disabled":false},{"label":"Pavia","id":32,"disabled":false},{"id":33,"label":"Pototan","disabled":false},{"disabled":false,"label":"San Dionisio","id":34},{"id":35,"label":"San Enrique","disabled":false},{"id":36,"label":"San Joaquin","disabled":false},{"id":37,"disabled":false,"label":"San Miguel"},{"id":38,"disabled":false,"label":"San Rafael"},{"disabled":false,"id":39,"label":"Santa Barbara"},{"id":40,"disabled":false,"label":"Sara"},{"disabled":false,"id":41,"label":"Tigbauan"},{"label":"Tubungan","id":42,"disabled":false},{"id":43,"label":"Zarraga","disabled":false},{"disabled":false,"id":44,"iscalendar":true,"label":"Due√±as"}],"label":"Iloilo","id":4},{"disabled":false,"municipalities":[{"label":"Bacolod City","id":0,"disabled":false},{"label":"Bago City","id":1,"disabled":false},{"id":2,"label":"Binalbagan","disabled":false},{"id":3,"disabled":false,"label":"Cadiz City"},{"disabled":false,"label":"Calatrava","id":4},{"label":"Candoni","disabled":false,"id":5},{"disabled":false,"id":6,"label":"Cauayan"},{"disabled":false,"id":7,"label":"Enrique B. Magalona"},{"disabled":false,"id":8,"label":"Escalante City"},{"id":9,"disabled":false,"label":"Himamaylan City"},{"id":10,"disabled":false,"label":"Hinigaran"},{"label":"Hinoba-An","disabled":false,"id":11},{"disabled":false,"label":"Ilog","id":12},{"id":13,"label":"Isabela","disabled":false},{"id":14,"disabled":false,"label":"Kabankalan City"},{"id":15,"disabled":false,"label":"La Carlota City"},{"disabled":false,"id":16,"label":"La Castellana"},{"id":17,"label":"Manapla","disabled":false},{"id":18,"disabled":false,"label":"Moises Padilla"},{"disabled":false,"id":19,"label":"Murcia"},{"disabled":false,"id":20,"label":"Pontevedra"},{"disabled":false,"label":"Pulupandan","id":21},{"label":"Sagay City","disabled":false,"id":22},{"label":"Salvador Benedicto","disabled":false,"id":23},{"disabled":false,"id":24,"label":"San Carlos City"},{"label":"San Enrique","id":25,"disabled":false},{"id":26,"disabled":false,"label":"Silay City"},{"id":27,"label":"Sipalay City","disabled":false},{"disabled":false,"label":"Talisay City","id":28},{"disabled":false,"label":"Toboso","id":29},{"id":30,"label":"Valladolid","disabled":false},{"disabled":false,"id":31,"label":"Victorias City"}],"id":5,"label":"Negros Occidental"}],"media":{"description":"Agro-Climatic Advisory Portal - Western Visayas (ACAP Western Visayas) serves as a centralized hub for the development of Climate Information Services (CIS) in the Western Visayas Region. It contains relevant weather and climate information which can be used in developing tailored advisories and crop recommendations.","url":"https://firebasestorage.googleapis.com/v0/b/acap-westernvisayas-prod.appspot.com/o/files%2Frfo6_og_02_common.jpg?alt=media&token=8f26d690-e7cb-45a6-becc-84183da87d53","path":"https://acap-westernvisayas.github.io"}},"__N_SSG":true}